[
{
    "id": 145,
    "name": "Thunderbird Resort Poro Point",
    "imageUrl": "http://www.wayfairtours.com.ph/wti/wp-content/uploads/2016/04/thunderbird-resort-poro-point7.jpg",
    "price": 50,
    "priceCurrency": "PHP",
    "lat":16.612280,
    "lng": 120.284754
  },
  {
    "id": 148,
    "name": "Pugad Pugo Adventure",
    "imageUrl": "https://lh6.googleusercontent.com/-ZZu06kiK0fU/WE2k3P9iDmI/AAAAAAAAAYA/HAuhNjEA2JIboxYfv60qjARqkXZOMji3QCLIB/s1600-w400/",
    "price": 200,
    "priceCurrency": "PHP",
    "lat": 16.336739,
    "lng": 120.478823
     
  },
  {
    "id": 201,
    "name": "Tangadan Falls",
    "imageUrl": "https://www.thepinaysolobackpacker.com/wp-content/uploads/2017/03/LA-UNION-TANGADAN-FALLS-5-1-of-12-846x515.jpeg",
    "price": 150,
    "priceCurrency": "PHP",
    "lat": 16.643948,
    "lng": 120.448791
 
  },
  {
    "id": 205,
    "name": "Bauang Grapes Farm",
    "imageUrl": "http://windowseat.ph/wp-content/uploads/2016/08/grape-farm-la-union.jpg",
    "price": 70,
    "priceCurrency": "PHP",
    "lat": 16.461364,
    "lng": 120.333840
    
  },
  {
    "id": 210,
    "name": "Baluarte Watch Tower",
    "imageUrl": "https://media-cdn.tripadvisor.com/media/photo-s/0f/8f/1e/80/baluarte-watch-tower.jpg",
    "price": 150,
    "priceCurrency": "PHP",
    "lat": 16.856968,
    "lng": 120.372883
     
  },
  {
    "id": 211,
    "name": "Bohemian and Chic in Paris",
    "imageUrl": "https://raw.githubusercontent.com/lewagon/flats-boilerplate/master/images/flat6.jpg",
    "price": 90,
    "priceCurrency": "EUR",
    "lat": 48.827855,
    "lng": 2.350774
  }
]
